{"locations":[{"id":0,"lat":32.0648175,"lng":34.7682433,"title":"hello world!","info":"this is some info","img_url":"http://kingofwallpapers.com/graffiti/graffiti-004.jpg"},{"id":1,"lat":32.055434,"lng":34.756528,"title":"another one!","info":"this is some more info","img_url":"http://kingofwallpapers.com/graffiti/graffiti-004.jpg"},{"id":2,"lat":31.7964453,"lng":35.1053192,"title":"another one!","info":"this is some more info","img_url":"http://kingofwallpapers.com/graffiti/graffiti-004.jpg"},{"id":3,"lat":17.041294083333334,"lng":-96.76803586111112,"title":"mexico gone wild","info":"this is some more info","img_url":"/web/resources/mexico_gone_wild.png"},{"id":4,"lat":32.06440277777777,"lng":34.77044444444444,"title":"noam and jony","info":"this is some more info","img_url":"/web/resources/noam_and_jony.png"},{"id":5,"lat":32.06440277777777,"lng":34.77044444444444,"title":"new one","info":"this is some more info","img_url":"/web/resources/new_one.png"},{"id":6,"lat":32.06440277777777,"lng":34.77044444444444,"title":"new one 2","info":"this is some more info","img_url":"/web/resources/new_one_2.png"},{"id":7,"lat":17.041294083333334,"lng":-96.76803586111112,"title":"loveeee mexico","info":"this is some more info","img_url":"/web/resources/loveeee_mexico.png"},{"id":8,"lat":17.041294083333334,"lng":-96.76803586111112,"title":"I love mex","info":"this is some more info","img_url":"/web/resources/I_love_mex.png"},{"id":9,"lat":32.06446944444444,"lng":34.77047777777778,"title":"aaa","info":"this is some more info","img_url":"/web/resources/aaa.png"},{"id":10,"lat":32.06446944444444,"lng":34.77047777777778,"title":"panoramart","info":"this is some more info","img_url":"/web/resources/panoramart.png"}]}